[
    {
        "name": "14th Star Brewing",
        "address": "41 Lower Newton Street",
        "city": "St Albans",
        "state": "VT",
        "zip": "05478",
        "latitude": 44.820179,
        "longitude": -73.085206,
        "vba100": "images/brewer100/fourteenthstar.png",
        "vba200": "images/brewer200/fourteenthstar.png",
        "selector": "fourteenthstar",
        "url":"http://www.14thstarbrewing.com/",
        "phone":"802.393.1459",
        "facebook":"https://www.facebook.com/14thstarbrewing",
        "twitter":"",
        "googleplus":""
    },
    {
        "name": "The Alchemist",
        "address": "35 Crossroad",
        "city": "Waterbury",
        "state": "VT",
        "zip": "05676",
        "latitude": 44.350471,
        "longitude": -72.743821,
        "vba100": "images/brewer100/alchemist.png",
        "vba200": "images/brewer200/alchemist.png",
        "selector": "alchemist",
        "url":"http://www.alchemistbeer.com",
        "phone":"802.244.7744",
        "facebook":"https://www.facebook.com/alchemistbeer",
        "twitter":"http://twitter.com/alchemistbeer",
        "googleplus":""
    },
    {
        "name": "Backacre Beermakers",
        "address": "Parts Unknown",
        "city": "Weston",
        "state": "VT",
        "zip": "05161",
        "latitude": 43.3,
        "longitude": -72.7833333,
        "vba100": "images/brewer100/backacrebeer.png",
        "vba200": "images/brewer200/backacrebeer.png",
        "selector": "backacrebeer",
        "url":"http://www.backacrebeermakers.com/",
        "phone":"Unknown",
        "facebook":"",
        "twitter":"",
        "googleplus":""
    },
    {
        "name": "Bobcat Cafe and Brewery",
        "address": "5 Main Street",
        "city":"Bristol",
        "state": "VT",
        "zip": "05443",
        "latitude": 44.132926,
        "longitude": -73.0782909,
        "vba100": "images/brewer100/bobcat.png",
        "vba200": "images/brewer200/bobcat.png",
        "selector": "bobcat",
        "url":"http://www.thebobcatcafe.com/",
        "phone":"802.453.3311",
        "facebook":"https://www.facebook.com/bobcatcafe",
        "twitter":"",
        "googleplus":""
    },
    {
        "name": "Covered Bridge Craft Brewery",
        "address": "30 Sleepy Hollow Lane",
        "city":"Lyndonville",
        "state": "VT",
        "zip": "05851",
        "latitude": 44.525937,
        "longitude": -71.998649,
        "vba100": "images/brewer100/coveredbridge.png",
        "vba200": "images/brewer200/coveredbridge.png",
        "selector": "coveredbridge",
        "url":"http://www.coveredbridgebrew.com/",
        "phone":"Unknown",
        "facebook":"https://www.facebook.com/pages/Covered-Bridge-Brewing/125177654161845",
        "twitter":"",
        "googleplus":""
    },
    {
        "name": "Crop Bistro and Brewery",
        "address": "1859 Mountain Road",
        "city":"Stowe",
        "state": "VT",
        "zip": "05672",
        "latitude": 44.473824,
        "longitude": -72.713977,
        "vba100": "images/brewer100/cropbistro.png",
        "vba200": "images/brewer200/cropbistro.png",
        "selector": "cropbistro",
        "url":"http://www.cropvt.com/",
        "phone":"802.253.4765",
        "facebook":"https://www.facebook.com/cropvt",
        "twitter":"https://twitter.com/#!/cropvt",
        "googleplus":""
    },
    {
        "name": "Drop-In Brewing Company",
        "address": "610 Route 7 South",
        "city":"Middlebury",
        "state": "VT",
        "zip": "05753",
        "latitude": 43.9999812,
        "longitude": -73.1487354,
        "vba100": "images/brewer100/dropin.png",
        "vba200": "images/brewer200/dropin.png",
        "selector": "dropin",
        "url":"http://www.dropinbeer.com/",
        "phone":"802.989.7414",
        "facebook":"https://www.facebook.com/dropinbrewing",
        "twitter":"https://twitter.com/#!/dropinbeer",
        "googleplus":""
    },
    {
        "name": "Fiddlehead Brewing Company",
        "address": "6305 Shelburne Road",
        "city": "Shelburne",
        "state": "VT",
        "zip": "05482",
        "latitude": 44.366199,
        "longitude": -73.232674,
        "vba100": "images/brewer100/fiddlehead.png",
        "vba200": "images/brewer200/fiddlehead.png",
        "selector": "fiddlehead",
        "url":"http://www.fiddleheadbrewing.com/",
        "phone":"802.399.2994",
        "facebook":"https://www.facebook.com/pages/Fiddlehead-Brewing-Company/152040331527610",
        "twitter":"https://twitter.com/fiddleheadbrew",
        "googleplus":""
    },
    {
        "name": "Foley Brothers Brewing",
        "address": "79 Stone Mill Dam Road",
        "city": "Brandon",
        "state": "VT",
        "zip": "05733",
        "latitude": 43.810501,
        "longitude": -73.0765,
        "vba100": "images/brewer100/foleybrothers.png",
        "vba200": "images/brewer200/foleybrothers.png",
        "selector": "foleybrothers",
        "url":"",
        "phone":"802.247.8002",
        "facebook":"https://www.facebook.com/FoleyBrothersBrewing",
        "twitter":"https://twitter.com/Foleybrewingvt",
        "googleplus":""
    },
    {
        "name": "Grateful Hands Brewing",
        "address": "2211 Us Route 2",
        "city": "Cabot",
        "state": "VT",
        "zip": "05647",
        "latitude": 44.389811,
        "longitude": -72.251764,
        "vba100": "images/brewer100/gratefulhands.png",
        "vba200": "images/brewer200/gratefulhands.png",
        "selector": "gratefulhands",
        "url":"http://www.gratefulhandsbrewing.com/",
        "phone":"802.249.4092",
        "facebook":"https://www.facebook.com/pages/Grateful-Hands-Brewery/100595590103331",
        "twitter":"https://twitter.com/GratefulHandsVT",
        "googleplus":""
    },
    {
        "name": "Harpoon Brewery",
        "address": "336 Ruth Carney Drive",
        "city": "Windsor",
        "state": "VT",
        "zip": "05089",
        "latitude": 43.512997,
        "longitude": -72.401527,
        "vba100": "images/brewer100/harpoon.png",
        "vba200": "images/brewer200/harpoon.png",
        "selector": "harpoon",
        "url":"http://www.harpoonbrewery.com/",
        "phone":"802.674.5491",
        "facebook":"https://www.facebook.com/TheHarpoonBrewery",
        "twitter":"http://www.twitter.com/harpoon_brewery",
        "googleplus":""
    },
    {
        "name": "Hill Farmstead Brewery",
        "address": "403 Hill Road",
        "city": "Greensboro Bend",
        "state": "VT",
        "zip": "05842",
        "latitude": 44.6072147,
        "longitude": -72.2623024,
        "vba100": "images/brewer100/hillfarmstead.png",
        "vba200": "images/brewer200/hillfarmstead.png",
        "selector": "hillfarmstead",
        "url":"http://www.hillfarmstead.com/",
        "phone":"802.533.7450",
        "facebook":"https://www.facebook.com/hillfarmstead",
        "twitter":"https://twitter.com/HillFarmstead",
        "googleplus":""
    },
    {
        "name": "Kingdom Brewing",
        "address": "1876 VT Route 105",
        "city": "Newport",
        "state": "VT",
        "zip": "05855",
        "latitude": 44.9315999,
        "longitude": -72.2809754,
        "vba100": "images/brewer100/kingdombrewing.png",
        "vba200": "images/brewer200/kingdombrewing.png",
        "selector": "kingdombrewing",
        "url":"http://www.kingdombrewingvt.net/",
        "phone":"802.334.7096",
        "facebook":"https://www.facebook.com/brewing.kingdom",
        "twitter":"https://twitter.com/KBrewing",
        "googleplus":""
    },
    {
        "name": "Lawsons Finest",
        "address": "284 Main Street",
        "city": "Warren",
        "state": "VT",
        "zip": "05674",
        "latitude": 44.112026,
        "longitude": -72.8562039,
        "vba100": "images/brewer100/lawsons.png",
        "vba200": "images/brewer200/lawsons.png",
        "selector": "lawsons",
        "url":"http://www.lawsonsfinest.com/",
        "phone":"802.272.8436",
        "facebook":"",
        "twitter":"",
        "googleplus":""
    },
    {
        "name": "Long Trail Brewing",
        "address": "5520 Route 4",
        "city": "Bridgewaters Corners",
        "state": "VT",
        "zip": "05035",
        "latitude": 43.58866,
        "longitude": -72.658913,
        "vba100": "images/brewer100/longtrail.png",
        "vba200": "images/brewer200/longtrail.png",
        "selector": "longtrail",
        "url":"http://www.longtrail.com/",
        "phone":"802.672.5011",
        "facebook":"https://www.facebook.com/pages/Long-Trail-Brewing/142163634919",
        "twitter":"https://twitter.com/LongTrailBrwing",
        "googleplus":""
    },
    {
        "name": "Lost Nation Brewing",
        "address": "254 Wilkins Street",
        "city": "Morrisville",
        "state": "VT",
        "zip": "05661",
        "latitude": 44.569263,
        "longitude":  -72.603439,
        "vba100": "images/brewer100/lostnationbrewing.png",
        "vba200": "images/brewer200/lostnationbrewing.png",
        "selector": "lostnationbrewing",
        "url":"http://lostnationbrewing.com/",
        "phone":"802.851.8041",
        "facebook":"http://www.facebook.com/pages/Lost-Nation-Brewing/168436043305981",
        "twitter":"https://twitter.com/LostNationBrew",
        "googleplus":""
    },
    {
        "name": "Madison Brewing",
        "address": "428 Main Street",
        "city": "Bennington",
        "state": "VT",
        "zip": "05201",
        "latitude": 42.8783839,
        "longitude": -73.196419,
        "vba100": "images/brewer100/madison.png",
        "vba200": "images/brewer200/madison.png",
        "selector": "madison",
        "url":"http://www.madisonbrewingco.com/",
        "phone":"802.442.7397",
        "facebook":"",
        "twitter":"https://twitter.com/MadisonBrewing",
        "googleplus":""
    },
    {
        "name": "Magic Hat Brewing Company",
        "address": "5 Bartlett Bay Road",
        "city": "South Burlington",
        "state": "VT",
        "zip": "05403",
        "latitude": 44.428405,
        "longitude": -73.213148,
        "vba100": "images/brewer100/magichat.png",
        "vba200": "images/brewer200/magichat.png",
        "selector": "magichat",
        "url":"http://www.magichat.net/",
        "phone":"802.658.2739",
        "facebook":"https://www.facebook.com/magichatbrewing",
        "twitter":"https://twitter.com/magichat",
        "googleplus":""
    },
    {
        "name": "McNeills Pub and Brewery",
        "address": "90 Elliot Street",
        "city": "Brattleboro",
        "state": "VT",
        "zip": "05301",
        "latitude": 42.851552,
        "longitude": -72.560164,
        "vba100": "images/brewer100/mcneills.png",
        "vba200": "images/brewer200/mcneills.png",
        "selector": "mcneills",
        "url":"http://www.mcneillsbrewery.com/",
        "phone":"802.254.2553",
        "facebook":"https://www.facebook.com/McNeillsBrewery",
        "twitter":"https://twitter.com/hereforthebeer",
        "googleplus":""
    },
    {
        "name": "Northshire Brewery",
        "address": "108 County Street",
        "city": "Bennington",
        "state": "VT",
        "zip": "05201",
        "latitude": 42.844954,
        "longitude": -73.2011993,
        "vba100": "images/brewer100/northshire.png",
        "vba200": "images/brewer200/northshire.png",
        "selector": "northshire",
        "url":"http://www.northshirebrewery.com/",
        "phone":"802.681.0201",
        "facebook":"https://www.facebook.com/NorthshireBrewery",
        "twitter":"https://twitter.com/northshirebrew",
        "googleplus":""
    },
    {
        "name": "Norwich Inn",
        "address": "325 Main Street",
        "city": "Norwich",
        "state": "VT",
        "zip": "05055",
        "latitude": 43.7151179,
        "longitude": -72.308907,
        "vba100": "images/brewer100/norwichinn.png",
        "vba200": "images/brewer200/norwichinn.png",
        "selector": "norwichinn",
        "url":"http://www.norwichinn.com/",
        "phone":"802.649.1143",
        "facebook":"https://www.facebook.com/pages/Norwich-Inn-Norwich-Vt/98695894945",
        "twitter":"https://twitter.com/norwichinn",
        "googleplus":""
    },
    {
        "name": "Otter Creek Brewing",
        "address": "793 Exchange Street",
        "city": "Middlebury",
        "state": "VT",
        "zip": "05753",
        "latitude": 44.019665,
        "longitude": -73.169251,
        "vba100": "images/brewer100/ottercreek.png",
        "vba200": "images/brewer200/ottercreek.png",
        "selector": "ottercreek",
        "url":"http://www.ottercreekbrewing.com/",
        "phone":"802.388.0727",
        "facebook":"https://www.facebook.com/pages/Otter-Creek-Brewery/137425442977971",
        "twitter":"https://twitter.com/OtterCreekBrew",
        "googleplus":""
    },
    {
        "name": "Rock Art Brewery",
        "address": "632 Laport Road",
        "city": "Morrisville",
        "state": "VT",
        "zip": "05661",
        "latitude": 44.558011,
        "longitude": -72.608794,
        "vba100": "images/brewer100/rockart.png",
        "vba200": "images/brewer200/rockart.png",
        "selector": "rockart",
        "url":"http://www.rockartbrewery.com/",
        "phone":"802.888.9400",
        "facebook":"https://www.facebook.com/pages/Rock-Art-Brewery/98108048941",
        "twitter":"https://twitter.com/rockartbrewery",
        "googleplus":""
    },
    {
        "name": "Switchback Brewing",
        "address": "160 Flynn Avenue",
        "city": "Burlington",
        "state": "VT",
        "zip": "05401",
        "latitude": 44.456184,
        "longitude": -73.220686,
        "vba100": "images/brewer100/switchback.png",
        "vba200": "images/brewer200/switchback.png",
        "selector": "switchback",
        "url":"http://switchbackvt.com/",
        "phone":"802.651.4114",
        "facebook":"https://www.facebook.com/SwitchbackBrewingCompany",
        "twitter":"",
        "googleplus":"https://plus.google.com/100869900531801925081/about?gl=us&hl=en"
    },
    {
        "name": "Trapp Family Lodge",
        "address": "700 Trapp Hill Road",
        "city": "Stowe",
        "state": "VT",
        "zip": "05672",
        "latitude": 44.465572,
        "longitude": -72.744066,
        "vba100": "images/brewer100/trappfamily.png",
        "vba200": "images/brewer200/trappfamily.png",
        "selector": "trappfamily",
        "url":"http://www.trappfamily.com/amenities/dining/brewery",
        "phone":"802.253.8512",
        "facebook":"https://www.facebook.com/TrappFamilyLodge?group_id=0",
        "twitter":"https://twitter.com/trappfamily",
        "googleplus":""
    },
    {
        "name": "Whetstone Station",
        "address": "36 Bridge Street",
        "city": "Brattleboro",
        "state": "VT",
        "zip": "05301",
        "latitude": 42.8515937,
        "longitude": -72.5565434,
        "vba100": "images/brewer100/whetstonestation.png",
        "vba200": "images/brewer200/whetstonestation.png",
        "selector": "whetstonestation",
        "url":"http://www.whetstonestation.com/",
        "phone":"802.490.2354",
        "facebook":"http://www.facebook.com/whetstonestation",
        "twitter":"http://www.twitter.com/whetstonebeer",
        "googleplus":"https://plus.google.com/113100977153373615113"
    },
    {
        "name": "Vermont Pub and Brewery",
        "address": "144 College Street",
        "city": "Burlington",
        "state": "VT",
        "zip": "05401",
        "latitude": 44.477262,
        "longitude": -73.214394,
        "vba100": "images/brewer100/vpb.png",
        "vba200": "images/brewer200/vpb.png",
        "selector": "vpb",
        "url":"http://www.vermontbrewery.com/",
        "phone":"802.865.0500",
        "facebook":"https://www.facebook.com/VermontPubandBrewery",
        "twitter":"",
        "googleplus":""
    },
    {
        "name": "Zero Gravity Craft Brewery",
        "address": "115 St. Paul Street",
        "city": "Burlington",
        "state": "VT",
        "zip": "05401",
        "latitude": 44.476553,
        "longitude": -73.214154,
        "vba100": "images/brewer100/zerogravity.png",
        "vba200": "images/brewer200/zerogravity.png",
        "selector": "zerogravity",
        "url":"http://www.zerogravitybeer.com/",
        "phone":"802.861.2999",
        "facebook":"https://www.facebook.com/pages/Zero-Gravity-Craft-Brewery/332441423441087",
        "twitter":"https://twitter.com/zerogravitybeer",
        "googleplus":""
    },
    {
        "name": "Stone Corral Brewery",
        "address": "830 Taft Road",
        "city": "Huntington",
        "state": "VT",
        "zip": "05462",
        "latitude": 44.311762,
        "longitude":  -72.962,
        "vba100": "images/brewer100/stonecorral.png",
        "vba200": "images/brewer200/stonecorral.png",
        "selector": "stonecorral",
        "url":"http://www.stonecorral.com/",
        "phone":"802.434.6318",
        "facebook":"https://www.facebook.com/stonecorralbrewery",
        "twitter":"",
        "googleplus":"https://plus.google.com/115438243512334076874/about?hl=en"
    },
    {
        "name": "First Republic Brewing Company",
        "address": "Middle Of Town Somewhere",
        "city": "Fairfax",
        "state": "VT",
        "zip": "05454",
        "latitude": 44.6654963,
        "longitude":  -73.01032,
        "vba100": "images/brewer100/firstrepublic.png",
        "vba200": "images/brewer200/firstrepublic.png",
        "selector": "firstrepublic",
        "url":"",
        "phone":"",
        "facebook":"https://www.facebook.com/1stRepublicBrewingCo/timeline",
        "twitter":"",
        "googleplus":""
    },
    {
        "name": "Burlington Beer Company",
        "address": "25 Omega Drive, Suite 150",
        "city": "Williston",
        "state": "VT",
        "zip": "05495",
        "latitude": 44.44783,
        "longitude":  -73.126007,
        "vba100": "images/brewer100/burlington.png",
        "vba200": "images/brewer200/burlington.png",
        "selector": "burlington",
        "url":"http://www.burlingtonbeercompany.com/",
        "phone":"802.863.2337",
        "facebook":"https://www.facebook.com/burlingtonbeer",
        "twitter":"https://twitter.com/BurlingtonBeer",
        "googleplus":"https://plus.google.com/108562682292716116095/about?hl=en"
    },
    {
        "name": "Infinity Brewing Company",
        "address": "80 Ethan Allen Drive",
        "city": "South Burlington",
        "state": "VT",
        "zip": "05403",
        "latitude": 44.48354,
        "longitude":  -73.156578,
        "vba100": "images/brewer100/infinity.png",
        "vba200": "images/brewer200/infinity.png",
        "selector": "infinity",
        "url":"http://www.infinitybrewing.com/#!/HOME",
        "phone":"802.735.1288",
        "facebook":"https://www.facebook.com/pages/Infinity-Brewing-Company/394631647330720",
        "twitter":"https://twitter.com/InfinityVermont",
        "googleplus":""
    },
    {
        "name": "Queen City Brewing Company",
        "address": "703B Pine Street",
        "city": "Burlington",
        "state": "VT",
        "zip": "05401",
        "latitude": 44.4594923,
        "longitude":  -73.2150952,
        "vba100": "images/brewer100/queencity.png",
        "vba200": "images/brewer200/queencity.png",
        "selector": "queencity",
        "url":"http://queencitybrewery.com/",
        "phone":"802.735.1288",
        "facebook":"http://www.facebook.com/QueenCityBrewery",
        "twitter":"https://twitter.com/QueenCtyBrewery",
        "googleplus":""
    },
    {
        "name": "Prohibition Pig",
        "address": "23 South Main Street",
        "city": "Waterbury",
        "state": "VT",
        "zip": "05676",
        "latitude": 44.3371855,
        "longitude":  -72.7560293,
        "vba100": "images/brewer100/propig.png",
        "vba200": "images/brewer200/propig.png",
        "selector": "propig",
        "url":"http://www.prohibitionpig.com",
        "phone":"802.244.4120",
        "facebook":"https://www.facebook.com/prohibitionpig",
        "twitter":"https://twitter.com/ProhibitionPig",
        "googleplus":""
    },
    {
        "name": "Four Quarters Brewing",
        "address": "150 West Canal Street",
        "city": "Winooski",
        "state": "VT",
        "zip": "05404",
        "latitude": 44.490157,
        "longitude":  -73.192018,
        "vba100": "images/brewer100/fourquarters.png",
        "vba200": "images/brewer200/fourquarters.png",
        "selector": "fourquarters",
        "url":"http://www.fourquartersbrewing.com/",
        "phone":"802.862.0775",
        "facebook":"https://www.facebook.com/FourQuartersBrewing",
        "twitter":"http://www.twitter.com/4quartersbrew",
        "googleplus":"https://plus.google.com/109969977542498061735/about"
    },
    {
        "name": "Hop'n Moose Brewing Co.",
        "address": "41 Center Street",
        "city": "Rutland",
        "state": "VT",
        "zip": "05701",
        "latitude": 43.6067008,
        "longitude":  -72.9775604,
        "vba100": "images/brewer100/hopnmoose.png",
        "vba200": "images/brewer200/hopnmoose.png",
        "selector": "hopnmoose",
        "url":"http://www.hopnmoose.com/",
        "phone":"802.775.7063",
        "facebook":"https://www.facebook.com/hopn.moose",
        "twitter":"https://twitter.com/HopnMoose",
        "googleplus":""
    },
    {
        "name": "Bent Hill Brewery",
        "address": "1972 Bent Hill Road",
        "city": "Braintree Hill",
        "state": "VT",
        "zip": "05060",
        "latitude": 43.98138,
        "longitude":  -72.720955,
        "vba100": "images/brewer100/benthill.png",
        "vba200": "images/brewer200/benthill.png",
        "selector": "benthill",
        "url":"http://www.benthillbrewery.com/",
        "phone":"802.249.1125",
        "facebook":"https://www.facebook.com/BentHillBrewery",
        "twitter":"https://twitter.com/BentHillBrewery",
        "googleplus":""
    },
    {
        "name": "Simple Roots Brewing",
        "address": "New North End",
        "city": "Burlington",
        "state": "VT",
        "zip": "05408-2544",
        "latitude": 44.4758825,
        "longitude":  -73.212072,
        "vba100": "images/brewer100/simpleroots.png",
        "vba200": "images/brewer200/simpleroots.png",
        "selector": "simpleroots",
        "url":"http://www.simplerootsbrewing.com/",
        "phone":"",
        "facebook":"https://www.facebook.com/pages/Simple-Roots-Brewing/1405276053058250",
        "twitter":"http://twitter.com/simplerootsbrew",
        "googleplus":""
    },
    {
        "name": "Hermit Thrush Brewery",
        "address": "29 High Street, Suite 101C",
        "city": "Brattleboro",
        "state": "VT",
        "zip": "05301",
        "latitude": 42.8534875,
        "longitude":  -72.5596126,
        "vba100": "images/brewer100/hermitthrush.png",
        "vba200": "images/brewer200/hermitthrush.png",
        "selector": "hermitthrush",
        "url":"http://www.hermitthrushbrewery.com/",
        "phone":"802.257.BEER",
        "facebook":"https://www.facebook.com/HermitThrushBrewery?ref=hl",
        "twitter":"https://twitter.com/BrattleBeer",
        "googleplus":""
    },
    {
        "name": "Frost Beer Works",
        "address": "171 Commerce Street",
        "city": "Hinesburg",
        "state": "VT",
        "zip": "05461",
        "latitude": 44.335381,
        "longitude":  -73.108999,
        "vba100": "images/brewer100/frostbeer.png",
        "vba200": "images/brewer200/frostbeer.png",
        "selector": "frostbeer",
        "url":"http://www.frostbeerworks.com/",
        "phone":"949.945.4064",
        "facebook":"",
        "twitter":"",
        "googleplus":""
    }
]
